---
CHA:
  name: 彰化縣
  names:
  - Changhua
  latitude: 24.0716583
  longitude: 120.5624474
  min_latitude: 24.0377972
  min_longitude: 120.4997914
  max_latitude: 24.1139398
  max_longitude: 120.6258758
CYI:
  name: 嘉義市
  names:
  - Chiai
  latitude: 23.4871898
  longitude: 120.4516708
CYQ:
  name: 嘉義縣
  names: Chiayi
  latitude: 23.4518428
  longitude: 120.2554615
  min_latitude: 23.2148
  min_longitude: 120.1174411
  max_latitude: 23.6359268
  max_longitude: 120.9576495
HSQ:
  name: 新竹縣
  names: Hsinchu
  latitude: 24.8066493
  longitude: 120.9669257
  min_latitude: 24.7125478
  min_longitude: 120.8794077
  max_latitude: 24.8569956
  max_longitude: 121.0335449
HSZ:
  name: 新竹市
  names: Hsinchu Municipality
  latitude: 24.9330791
  longitude: 121.0093188
  min_latitude: 24.932182
  min_longitude: 121.0086104
  max_latitude: 24.9337171
  max_longitude: 121.0100775
HUA:
  name: 花蓮縣
  names:
  - Hualian
  latitude: 23.9499886
  longitude: 121.5518908
  min_latitude: 23.0977983
  min_longitude: 120.9866267
  max_latitude: 24.37056
  max_longitude: 121.7714431
ILA:
  name: 宜蘭縣
  names: Ilan
  latitude: 24.7021073
  longitude: 121.7377502
  min_latitude: 24.3094447
  min_longitude: 121.3167219
  max_latitude: 25.7517095
  max_longitude: 123.4934282
KEE:
  name: 基隆市
  names:
  - Chilung Shih
  latitude: 25.1313701
  longitude: 121.7488675
KHH:
  name: 高雄市
  names: Kaohsiung Special Municipality
  latitude: 22.6272784
  longitude: 120.3014353
  min_latitude: 20.5862202
  min_longitude: 116.7118602
  max_latitude: 23.4717267
  max_longitude: 121.0490147
MIA:
  name: 苗栗縣
  names: Miaoli
  latitude: 24.560159
  longitude: 120.8214265
  min_latitude: 24.2885293
  min_longitude: 120.6223738
  max_latitude: 24.741082
  max_longitude: 121.2626344
NAN:
  name: 南投縣
  names: Nantou
  latitude: 23.9609981
  longitude: 120.9718638
  min_latitude: 23.435385
  min_longitude: 120.6155614
  max_latitude: 24.2463089
  max_longitude: 121.3494752
PEN:
  name: 澎湖縣
  names: Penghu
  latitude: 23.5711899
  longitude: 119.5793157
  min_latitude: 23.1865723
  min_longitude: 119.3144141
  max_latitude: 23.775773
  max_longitude: 119.7269552
PIF:
  name: 屏東縣
  names: Pingtung
  latitude: 22.5519759
  longitude: 120.5487597
  min_latitude: 21.8968211
  min_longitude: 120.3527512
  max_latitude: 22.8851844
  max_longitude: 120.9042007
TAO:
  name: 桃園市
  names: Taoyuan
  latitude: 24.9936281
  longitude: 121.3009798
  min_latitude: 24.5864837
  min_longitude: 120.9845663
  max_latitude: 25.123137
  max_longitude: 121.4798128
TNN:
  name: 台南市
  names: Tainan Municipality
  latitude: 23.0038497
  longitude: 120.212227
TPE:
  name: 台北市
  names: Taipei Special Municipality
  latitude: 25.0329694
  longitude: 121.5654177
  min_latitude: 24.7900797
  min_longitude: 121.2826735
  max_latitude: 25.2443731
  max_longitude: 121.7300824
TPQ:
  name: 新北市
  names: Taipei
  latitude: 25.0329694
  longitude: 121.5654177
  min_latitude: 24.7900797
  min_longitude: 121.2826735
  max_latitude: 25.2443731
  max_longitude: 121.7300824
TTT:
  name: 台東縣
  names:
  - Taidong
  latitude: 22.7972447
  longitude: 121.0713702
  min_latitude: 22.0009719
  min_longitude: 120.7390581
  max_latitude: 23.443723
  max_longitude: 121.601229
TXG:
  name: 台中市
  names: Taichung Municipality
  latitude: 24.301983
  longitude: 120.5854674
YUN:
  name: 雲林縣
  names: Yunlin
  latitude: 23.7092033
  longitude: 120.4313373
  min_latitude: 23.5043147
  min_longitude: 120.132978
  max_latitude: 23.8421451
  max_longitude: 120.7362057
KMN:
  name: 金門縣
  names: Kinmen
  latitude: 
  longitude: 
  min_latitude: 
  min_longitude: 
  max_latitude: 
  max_longitude: 
LCG:
  name: 連江縣
  names: Lienchiang
  latitude: 
  longitude: 
  min_latitude: 
  min_longitude: 
  max_latitude: 
  max_longitude: 
